{
"type": "FeatureCollection",
"name": "punti2_",
"crs": { "type": "name", "properties": { "name": "urn:ogc:def:crs:OGC:1.3:CRS84" } },
"features": [
{"type":"Feature","properties":{"fid":1,"tipo":"chiesa","nome":"santa maria","descrizione":"chiesa di santa maria del monte"},"geometry":{"type":"Point","coordinates":[15.228092234226169,40.413723926367574]}},
{"type":"Feature","properties":{"fid":2,"tipo":"museo","nome":"museo civilta contadina","descrizione":null},"geometry":{"type":"Point","coordinates":[15.229795935421791,40.416328957709062]}},
{"type":"Feature","properties":{"fid":3,"tipo":"murales","nome":"murales","descrizione":null},"geometry":null},
{"type":"Feature","properties":{"fid":4,"tipo":"chiesa","nome":"chiesa madre","descrizione":null},"geometry":{"type":"Point","coordinates":[15.230215842937824,40.416695373821774]}},
{"type":"Feature","properties":{"fid":5,"tipo":"fontana","nome":"fontana dei ciucci","descrizione":null},"geometry":{"type":"Point","coordinates":[15.230522415543081,40.415447018196865]}},
{"type":"Feature","properties":{"fid":6,"tipo":"mulino","nome":"mulino del principe","descrizione":null},"geometry":{"type":"Point","coordinates":[15.239164954712619,40.425322199891575]}},
{"type":"Feature","properties":{"fid":7,"tipo":"ponte","nome":"ponte di ferro","descrizione":null},"geometry":{"type":"Point","coordinates":[15.237382688018389,40.409139044460808]}}
]
}
